[
  {
    "id": 1,
    "name": "小原沢工務店",
    "address": "茨城県北茨城市磯原町上相田412",
    "lat": 36.7993363,
    "lng": 140.7185249
  },
  {
    "id": 2,
    "name": "(株)秋山工務店",
    "address": "茨城県日立市大沼町1丁目7番1号",
    "lat": 36.53411699999999,
    "lng": 140.6202056
  },
  {
    "id": 3,
    "name": "(株)古川工務店",
    "address": "茨城県日立市大みか町2-21-12",
    "lat": 36.5139468,
    "lng": 140.6216179
  },
  {
    "id": 4,
    "name": "田岡建設(株)",
    "address": "茨城県日立市多賀町4-2-30",
    "lat": 36.5562945,
    "lng": 140.6359562
  },
  {
    "id": 5,
    "name": "株式会社ｵｶﾍﾞ",
    "address": "茨城県日立市多賀町2丁目10-7号",
    "lat": 36.5576241,
    "lng": 140.6301661
  },
  {
    "id": 6,
    "name": "(有)成沢建設",
    "address": "茨城県日立市西成沢町1-38-8",
    "lat": 36.5804734,
    "lng": 140.6324557
  },
  {
    "id": 7,
    "name": "株式会社ｶﾂﾕｳ",
    "address": "茨城県日立市諏訪町3丁目12-1",
    "lat": 36.5727032,
    "lng": 140.6212534
  },
  {
    "id": 8,
    "name": "鈴縫工業株式会社",
    "address": "茨城県日立市城南町1-11-31",
    "lat": 36.5848525,
    "lng": 140.6427147
  },
  {
    "id": 9,
    "name": "小野瀬測量事務所",
    "address": "茨城県日立市小木津町4丁目23番6号",
    "lat": 36.6432379,
    "lng": 140.6872816
  },
  {
    "id": 10,
    "name": "(株)ｻﾝﾜ",
    "address": "茨城県日立市久慈町6-10-20",
    "lat": 36.5090718,
    "lng": 140.6103404
  },
  {
    "id": 11,
    "name": "株式会社根本組",
    "address": "茨城県高萩市大和町3-4",
    "lat": 36.7107763,
    "lng": 140.7130531
  },
  {
    "id": 12,
    "name": "(有)海老沼造園土木",
    "address": "茨城県高萩市大字石滝630",
    "lat": 36.698854,
    "lng": 140.6962463
  },
  {
    "id": 13,
    "name": "山川建設(株)",
    "address": "茨城県高萩市大字安良川西ﾉ入1305-5",
    "lat": 36.71073579999999,
    "lng": 140.708312
  },
  {
    "id": 14,
    "name": "株式会社利光工務店",
    "address": "茨城県高萩市安良川757-1",
    "lat": 36.70750779999999,
    "lng": 140.7070375
  },
  {
    "id": 15,
    "name": "(有)飛田組",
    "address": "茨城県常陸太田市岩手町747",
    "lat": 36.5642471,
    "lng": 140.4782832
  },
  {
    "id": 16,
    "name": "株式会社大子造園土木",
    "address": "茨城県久慈郡大子町矢田910-1",
    "lat": 36.7909666,
    "lng": 140.3555376
  },
  {
    "id": 17,
    "name": "吉原建設工業(株)",
    "address": "茨城県久慈郡大子町矢田496",
    "lat": 36.7931133,
    "lng": 140.3591187
  },
  {
    "id": 18,
    "name": "牛木建設(株)",
    "address": "茨城県久慈郡大子町矢田162-3",
    "lat": 36.7934197,
    "lng": 140.3583713
  },
  {
    "id": 19,
    "name": "有限会社星造園土木",
    "address": "茨城県久慈郡大子町北吉沢788",
    "lat": 36.8709792,
    "lng": 140.3632451
  },
  {
    "id": 20,
    "name": "二方林業有限会社",
    "address": "茨城県久慈郡大子町北吉沢1320",
    "lat": 36.8740241,
    "lng": 140.3610673
  },
  {
    "id": 21,
    "name": "(有)金沢建設",
    "address": "茨城県久慈郡大子町田野沢316",
    "lat": 36.7898011,
    "lng": 140.2817737
  },
  {
    "id": 22,
    "name": "(株)藤田工務店",
    "address": "茨城県久慈郡大子町池田2804",
    "lat": 36.7705107,
    "lng": 140.3580146
  },
  {
    "id": 23,
    "name": "有限会社ｻｲﾄｳ緑地開発",
    "address": "茨城県久慈郡大子町大生瀬669",
    "lat": 36.7888571,
    "lng": 140.4054959
  },
  {
    "id": 24,
    "name": "益子建設(株)",
    "address": "茨城県久慈郡大子町大字池田1623",
    "lat": 36.782286,
    "lng": 140.3574878
  },
  {
    "id": 25,
    "name": "株式会社袴田工務店",
    "address": "茨城県久慈郡大子町大字上郷1346",
    "lat": 36.8416418,
    "lng": 140.3368151
  },
  {
    "id": 26,
    "name": "(有)小磯工務店",
    "address": "茨城県久慈郡大子町浅川350",
    "lat": 36.8173539,
    "lng": 140.3265113
  },
  {
    "id": 27,
    "name": "大森建設(株)",
    "address": "茨城県久慈郡大子町上郷1226",
    "lat": 36.84313059999999,
    "lng": 140.3352573
  },
  {
    "id": 28,
    "name": "(有)高橋産業舎",
    "address": "茨城県久慈郡大子町上岡359",
    "lat": 36.7798624,
    "lng": 140.3234423
  },
  {
    "id": 29,
    "name": "株式会社大藤組",
    "address": "茨城県久慈郡大子町小生瀬4053-2",
    "lat": 36.7677851,
    "lng": 140.4293725
  },
  {
    "id": 30,
    "name": "(有)益子工務店",
    "address": "茨城県久慈郡大子町初原543",
    "lat": 36.807755,
    "lng": 140.3116423
  },
  {
    "id": 31,
    "name": "(株)角石",
    "address": "茨城県久慈郡大子町頃藤5016",
    "lat": 36.72312050000001,
    "lng": 140.378262
  },
  {
    "id": 32,
    "name": "(有)益子",
    "address": "茨城県久慈郡大子町頃藤3639-2",
    "lat": 36.72272359999999,
    "lng": 140.3854205
  },
  {
    "id": 33,
    "name": "(有)皆川建設",
    "address": "茨城県常陸大宮市野口3315-1",
    "lat": 36.5607079,
    "lng": 140.3135976
  },
  {
    "id": 34,
    "name": "大栄建設(株)",
    "address": "茨城県常陸大宮市北町40",
    "lat": 36.5522411,
    "lng": 140.4112167
  },
  {
    "id": 35,
    "name": "株式会社瀧工務店",
    "address": "茨城県常陸大宮市富岡191",
    "lat": 36.5447383,
    "lng": 140.4395298
  },
  {
    "id": 36,
    "name": "那北建設株式会社",
    "address": "茨城県常陸大宮市氷之沢西ﾉ内3-1",
    "lat": 36.6357812,
    "lng": 140.3223836
  },
  {
    "id": 37,
    "name": "有限会社尾崎組",
    "address": "茨城県常陸大宮市八田700-1",
    "lat": 36.5560825,
    "lng": 140.375298
  },
  {
    "id": 38,
    "name": "(株)石川土木",
    "address": "茨城県常陸大宮市長倉1033-4",
    "lat": 36.5679791,
    "lng": 140.2763861
  },
  {
    "id": 39,
    "name": "有限会社小野瀬建設",
    "address": "茨城県常陸大宮市大字高部3844",
    "lat": 36.6647515,
    "lng": 140.3021141
  },
  {
    "id": 40,
    "name": "(株)小林工務店",
    "address": "茨城県常陸大宮市泉542-12",
    "lat": 36.5314387,
    "lng": 140.426718
  },
  {
    "id": 41,
    "name": "中島建材株式会社",
    "address": "茨城県常陸大宮市山方808-1",
    "lat": 36.627252,
    "lng": 140.4019709
  },
  {
    "id": 42,
    "name": "掛札建設(株)",
    "address": "茨城県常陸大宮市山方1002",
    "lat": 36.6329728,
    "lng": 140.3843215
  },
  {
    "id": 43,
    "name": "(株)龍崎工務店",
    "address": "茨城県常陸大宮市高部3978",
    "lat": 36.6629784,
    "lng": 140.3022678
  },
  {
    "id": 44,
    "name": "(株)神永工務店",
    "address": "茨城県常陸大宮市下村田33",
    "lat": 36.5237746,
    "lng": 140.4223781
  },
  {
    "id": 45,
    "name": "(株)彩仁",
    "address": "茨城県ひたちなか市和尚塚12409-1",
    "lat": 36.3556586,
    "lng": 140.5996511
  },
  {
    "id": 46,
    "name": "河又土建工業株式会社",
    "address": "茨城県ひたちなか市堀口686-14",
    "lat": 36.3935364,
    "lng": 140.5142796
  },
  {
    "id": 47,
    "name": "(株)八木組",
    "address": "茨城県ひたちなか市北神敷台20-1",
    "lat": 36.3548769,
    "lng": 140.5920809
  },
  {
    "id": 48,
    "name": "東水建設株式会社",
    "address": "茨城県ひたちなか市平磯町1576-1",
    "lat": 36.3592237,
    "lng": 140.6172703
  },
  {
    "id": 49,
    "name": "小林建設工業有限会社",
    "address": "茨城県ひたちなか市武田390-6",
    "lat": 36.388899,
    "lng": 140.5173397
  },
  {
    "id": 50,
    "name": "(株)中島工務店",
    "address": "茨城県ひたちなか市馬渡字向野2975-4",
    "lat": 36.4088739,
    "lng": 140.5630615
  },
  {
    "id": 51,
    "name": "高倉建設工業株式会社",
    "address": "茨城県ひたちなか市馬渡2898-2",
    "lat": 36.4056226,
    "lng": 140.5597401
  },
  {
    "id": 52,
    "name": "松和重機(株)",
    "address": "茨城県ひたちなか市馬渡2896-41",
    "lat": 36.4031923,
    "lng": 140.5554371
  },
  {
    "id": 53,
    "name": "有限会社二川組",
    "address": "茨城県ひたちなか市東本町8-8",
    "lat": 36.343335,
    "lng": 140.595035
  },
  {
    "id": 54,
    "name": "(有)横須賀工務店",
    "address": "茨城県ひたちなか市東石川3丁目987-7",
    "lat": 36.39229590000001,
    "lng": 140.5323208
  },
  {
    "id": 55,
    "name": "皆神建材",
    "address": "茨城県ひたちなか市田彦後原1319-9",
    "lat": 36.420911,
    "lng": 140.5166782
  },
  {
    "id": 56,
    "name": "有限会社斉藤興業所",
    "address": "茨城県ひたちなか市田彦1394-16",
    "lat": 36.4118705,
    "lng": 140.5223231
  },
  {
    "id": 57,
    "name": "ｽﾄｳ工業(株)",
    "address": "茨城県ひたちなか市田彦1020-28",
    "lat": 36.425483,
    "lng": 140.518045
  },
  {
    "id": 58,
    "name": "橋本建設株式会社",
    "address": "茨城県ひたちなか市田中後39-6",
    "lat": 36.3494045,
    "lng": 140.5809689
  },
  {
    "id": 59,
    "name": "(株)大栄建設",
    "address": "茨城県ひたちなか市中根六ﾂ野4817-13",
    "lat": 36.3998035,
    "lng": 140.5466917
  },
  {
    "id": 60,
    "name": "東昌産業株式会社",
    "address": "茨城県ひたちなか市中根5256-1",
    "lat": 36.3867878,
    "lng": 140.5465916
  },
  {
    "id": 61,
    "name": "(株)最北建設",
    "address": "茨城県ひたちなか市中根3600-439",
    "lat": 36.3893685,
    "lng": 140.5634871
  },
  {
    "id": 62,
    "name": "(株)大曽根建設",
    "address": "茨城県ひたちなか市足崎1474-46",
    "lat": 36.4031829,
    "lng": 140.5546655
  },
  {
    "id": 63,
    "name": "(株)大須賀工務店",
    "address": "茨城県ひたちなか市相金町11-1",
    "lat": 36.350148,
    "lng": 140.5855427
  },
  {
    "id": 64,
    "name": "大橋設備工業株式会社",
    "address": "茨城県ひたちなか市笹野町3-14-37",
    "lat": 36.399825,
    "lng": 140.5479067
  },
  {
    "id": 65,
    "name": "砂押工業株式会社",
    "address": "茨城県ひたちなか市高野338-4",
    "lat": 36.4237032,
    "lng": 140.5518178
  },
  {
    "id": 66,
    "name": "戸田工業(株)",
    "address": "茨城県ひたちなか市高野1154-4",
    "lat": 36.4312271,
    "lng": 140.5480297
  },
  {
    "id": 67,
    "name": "株式会社有路工務店",
    "address": "茨城県ひたちなか市共栄町8-13",
    "lat": 36.398572,
    "lng": 140.5272861
  },
  {
    "id": 68,
    "name": "(株)上肥",
    "address": "茨城県ひたちなか市稲田1176-6",
    "lat": 36.427527,
    "lng": 140.5253891
  },
  {
    "id": 69,
    "name": "(有)ﾈﾓﾄ設備",
    "address": "茨城県ひたちなか市阿字ヶ浦町976-8",
    "lat": 36.3810369,
    "lng": 140.6057862
  },
  {
    "id": 70,
    "name": "神洋建設(株)",
    "address": "茨城県ひたちなか市阿字ｹ浦町1991-15",
    "lat": 36.38988519999999,
    "lng": 140.6035717
  },
  {
    "id": 71,
    "name": "(株)ﾕﾆﾊﾞｰｻﾙ建設工業",
    "address": "茨城県ひたちなか市はしかべ1-15-27",
    "lat": 36.4071349,
    "lng": 140.5424116
  },
  {
    "id": 72,
    "name": "(株)浅川建設",
    "address": "茨城県那珂市豊喰428",
    "lat": 36.4357983,
    "lng": 140.4649166
  },
  {
    "id": 73,
    "name": "(有)渡辺工務店",
    "address": "茨城県那珂市中台739",
    "lat": 36.41075319999999,
    "lng": 140.4813167
  },
  {
    "id": 74,
    "name": "(株)松井建設",
    "address": "茨城県那珂市大字瓜連13-1",
    "lat": 36.5028634,
    "lng": 140.4383725
  },
  {
    "id": 75,
    "name": "飯塚組有限会社",
    "address": "茨城県那珂市菅谷658",
    "lat": 36.4611985,
    "lng": 140.4981019
  },
  {
    "id": 76,
    "name": "有限会社大畠土木",
    "address": "茨城県那珂市菅谷4338",
    "lat": 36.4478147,
    "lng": 140.493661
  },
  {
    "id": 77,
    "name": "(株)ﾃｯｸ",
    "address": "茨城県那珂市鹿島2134-1",
    "lat": 36.4865134,
    "lng": 140.4644392
  },
  {
    "id": 78,
    "name": "青山土木工業(有)",
    "address": "茨城県那珂市後台1808-5",
    "lat": 36.4281583,
    "lng": 140.4763149
  },
  {
    "id": 79,
    "name": "岩佐建設工業(株)",
    "address": "茨城県那珂市額田南郷2333-4",
    "lat": 36.4789703,
    "lng": 140.5149133
  },
  {
    "id": 80,
    "name": "(株)高野工務店",
    "address": "茨城県那珂市瓜連610-1",
    "lat": 36.49753190000001,
    "lng": 140.4492717
  },
  {
    "id": 81,
    "name": "有限会社小林土建",
    "address": "茨城県那珂市瓜連1741-2",
    "lat": 36.5044063,
    "lng": 140.4483864
  },
  {
    "id": 82,
    "name": "(株)河野工務店",
    "address": "茨城県那珂郡東海村東海2-1-19",
    "lat": 36.4704102,
    "lng": 140.5664601
  },
  {
    "id": 83,
    "name": "(有)大建工業",
    "address": "茨城県那珂郡東海村村松北2-1-2",
    "lat": 36.4653164,
    "lng": 140.5804339
  },
  {
    "id": 84,
    "name": "環境保全事業(株)",
    "address": "茨城県那珂郡東海村村松1033-1",
    "lat": 36.4602409,
    "lng": 140.5840461
  },
  {
    "id": 85,
    "name": "(株)大興建設",
    "address": "茨城県那珂郡東海村舟石川571-2",
    "lat": 36.470908,
    "lng": 140.5472048
  },
  {
    "id": 86,
    "name": "株式会社菊地工務店",
    "address": "茨城県東茨城郡大洗町磯浜町1110",
    "lat": 36.3126754,
    "lng": 140.5666445
  },
  {
    "id": 87,
    "name": "有限会社東海組",
    "address": "茨城県東茨城郡城里町那珂西2488-2",
    "lat": 36.4681938,
    "lng": 140.3941058
  },
  {
    "id": 88,
    "name": "常北建設工業(株)",
    "address": "茨城県東茨城郡城里町増井1351-3",
    "lat": 36.4537869,
    "lng": 140.3858137
  },
  {
    "id": 89,
    "name": "(株)かつら設計",
    "address": "茨城県東茨城郡城里町石塚931-3",
    "lat": 36.4799281,
    "lng": 140.3661979
  },
  {
    "id": 90,
    "name": "(有)大竹建設工業",
    "address": "茨城県東茨城郡城里町上入野2293",
    "lat": 36.4451013,
    "lng": 140.3794106
  },
  {
    "id": 91,
    "name": "大洋工業(株)",
    "address": "茨城県東茨城郡城里町塩子1088-2",
    "lat": 36.4945095,
    "lng": 140.2568945
  },
  {
    "id": 92,
    "name": "(株)桐原工務店",
    "address": "茨城県東茨城郡城里町粟339-2",
    "lat": 36.5017177,
    "lng": 140.3711908
  },
  {
    "id": 93,
    "name": "有限会社斎藤工業",
    "address": "茨城県東茨城郡茨城町前田678-1",
    "lat": 36.3051322,
    "lng": 140.4313264
  },
  {
    "id": 94,
    "name": "株式会社高木工務店",
    "address": "茨城県東茨城郡茨城町小堤372",
    "lat": 36.278591,
    "lng": 140.4185128
  },
  {
    "id": 95,
    "name": "宇野建設工業株式会社",
    "address": "茨城県東茨城郡茨城町海老沢6",
    "lat": 36.2634309,
    "lng": 140.4597917
  },
  {
    "id": 96,
    "name": "大和建設(株)",
    "address": "茨城県東茨城郡茨城町長岡3455-2",
    "lat": 36.3087002,
    "lng": 140.4432041
  },
  {
    "id": 97,
    "name": "鈴縫工業株式会社",
    "address": "茨城県水戸市三の丸2丁目11-17 鈴縫三の丸ﾋﾞﾙ",
    "lat": 36.374654,
    "lng": 140.4829437
  },
  {
    "id": 98,
    "name": "(株)三剛建設",
    "address": "茨城県水戸市堀町字新田1157-61",
    "lat": 36.397662,
    "lng": 140.4187647
  },
  {
    "id": 99,
    "name": "(株)ﾘﾊﾞﾃｨｰﾌﾟﾗﾝﾆﾝｸﾞ",
    "address": "茨城県水戸市飯富町2741-4",
    "lat": 36.4169865,
    "lng": 140.4197168
  },
  {
    "id": 100,
    "name": "常陸測工株式会社",
    "address": "茨城県水戸市白梅2-4-11",
    "lat": 36.3640724,
    "lng": 140.4776281
  },
  {
    "id": 101,
    "name": "細谷工業(株)",
    "address": "茨城県水戸市中原町841",
    "lat": 36.3830966,
    "lng": 140.3557844
  },
  {
    "id": 102,
    "name": "(株)鈴木設計",
    "address": "茨城県水戸市泉町2-2-30",
    "lat": 36.3788251,
    "lng": 140.4625104
  },
  {
    "id": 103,
    "name": "(株)市毛建設",
    "address": "茨城県水戸市千波町454-1",
    "lat": 36.364631,
    "lng": 140.4558261
  },
  {
    "id": 104,
    "name": "(株)綿正工務店",
    "address": "茨城県水戸市赤塚2-2029-60",
    "lat": 36.38785600000001,
    "lng": 140.415249
  },
  {
    "id": 105,
    "name": "(株)栄建",
    "address": "茨城県水戸市小吹町1928-1",
    "lat": 36.3487759,
    "lng": 140.4301028
  },
  {
    "id": 106,
    "name": "(有)粉林土木",
    "address": "茨城県水戸市小吹町1133-1",
    "lat": 36.3430282,
    "lng": 140.4230975
  },
  {
    "id": 107,
    "name": "田辺工業(株)",
    "address": "茨城県水戸市住吉町131",
    "lat": 36.3325252,
    "lng": 140.47331
  },
  {
    "id": 108,
    "name": "(有)ﾙｰﾂ",
    "address": "茨城県水戸市鯉渕町1690-9",
    "lat": 36.3535699,
    "lng": 140.3849872
  },
  {
    "id": 109,
    "name": "東洋工業株式会社",
    "address": "茨城県水戸市袴塚1-4-17",
    "lat": 36.3950791,
    "lng": 140.4493981
  },
  {
    "id": 110,
    "name": "総合技研(株)",
    "address": "茨城県水戸市金町1-2-46",
    "lat": 36.3818541,
    "lng": 140.4709663
  },
  {
    "id": 111,
    "name": "株式会社水工ｴﾝｼﾞﾆｱﾘﾝｸﾞ",
    "address": "茨城県水戸市笠原町1220番地1",
    "lat": 36.3469703,
    "lng": 140.449675
  },
  {
    "id": 112,
    "name": "株式会社ｱｲ･ﾛｰﾄﾞ",
    "address": "茨城県水戸市河和田町4379-92",
    "lat": 36.3565703,
    "lng": 140.3910017
  },
  {
    "id": 113,
    "name": "(有)市毛工務店",
    "address": "茨城県水戸市塩崎町3",
    "lat": 36.3324798,
    "lng": 140.5505017
  },
  {
    "id": 114,
    "name": "(有)清水工務店",
    "address": "茨城県笠間市北吉原132",
    "lat": 36.3593609,
    "lng": 140.2424801
  },
  {
    "id": 115,
    "name": "(株)大平工務店",
    "address": "茨城県笠間市南友部750",
    "lat": 36.3580999,
    "lng": 140.3027913
  },
  {
    "id": 116,
    "name": "株式会社翔新",
    "address": "茨城県笠間市大田町瀧前414-8",
    "lat": 36.3505625,
    "lng": 140.2888599
  },
  {
    "id": 117,
    "name": "株式会社高田工務店",
    "address": "茨城県笠間市大郷戸306",
    "lat": 36.3882703,
    "lng": 140.2021416
  },
  {
    "id": 118,
    "name": "株式会社茨城中央建労協",
    "address": "茨城県笠間市仁古田722",
    "lat": 36.3017947,
    "lng": 140.3507641
  },
  {
    "id": 119,
    "name": "大平建設(株)",
    "address": "茨城県笠間市鯉淵6340",
    "lat": 36.3425956,
    "lng": 140.3273501
  },
  {
    "id": 120,
    "name": "(有)郡司組",
    "address": "茨城県笠間市稲田3342",
    "lat": 36.3742201,
    "lng": 140.2158726
  },
  {
    "id": 121,
    "name": "株式会社沼田機業",
    "address": "茨城県小美玉市野田183",
    "lat": 36.1850716,
    "lng": 140.3695778
  },
  {
    "id": 122,
    "name": "株式会社中村.建工",
    "address": "茨城県小美玉市中野谷441-3",
    "lat": 36.225668,
    "lng": 140.324867
  },
  {
    "id": 123,
    "name": "株式会社大栄",
    "address": "茨城県小美玉市川戸1530-5",
    "lat": 36.1895957,
    "lng": 140.3909725
  },
  {
    "id": 124,
    "name": "株式会社植田建設工業",
    "address": "茨城県小美玉市上玉里1622",
    "lat": 36.1672431,
    "lng": 140.3428771
  },
  {
    "id": 125,
    "name": "鈴木建材工業(有)",
    "address": "茨城県小美玉市上玉里1537",
    "lat": 36.1662847,
    "lng": 140.3423404
  },
  {
    "id": 126,
    "name": "(株)山長",
    "address": "茨城県小美玉市上玉里1129-3",
    "lat": 36.1652309,
    "lng": 140.3301224
  },
  {
    "id": 127,
    "name": "(株)内藤工務店",
    "address": "茨城県小美玉市小川383-11",
    "lat": 36.1714167,
    "lng": 140.3656091
  },
  {
    "id": 128,
    "name": "(有)三晄ﾌﾟﾗﾝﾆﾝｸﾞ",
    "address": "茨城県小美玉市柴高403",
    "lat": 36.2350577,
    "lng": 140.3726429
  },
  {
    "id": 129,
    "name": "(株)茂木工務店",
    "address": "茨城県小美玉市山野1588",
    "lat": 36.1774158,
    "lng": 140.3917977
  },
  {
    "id": 130,
    "name": "(有)清司工務店",
    "address": "茨城県小美玉市三筒442-1",
    "lat": 36.1809132,
    "lng": 140.3151747
  },
  {
    "id": 131,
    "name": "株式会社明和技術ｺﾝｻﾙﾀﾝﾂ",
    "address": "茨城県小美玉市外之内398-1",
    "lat": 36.1716041,
    "lng": 140.3983169
  },
  {
    "id": 132,
    "name": "株式会社美野里建設",
    "address": "茨城県小美玉市花野井131",
    "lat": 36.2309706,
    "lng": 140.3127819
  },
  {
    "id": 133,
    "name": "(有)共立建設",
    "address": "茨城県小美玉市羽鳥3061-3",
    "lat": 36.2412138,
    "lng": 140.3047733
  },
  {
    "id": 134,
    "name": "(株)ｸﾎﾞﾀ総建",
    "address": "茨城県小美玉市羽鳥2607-2",
    "lat": 36.2483818,
    "lng": 140.2856483
  },
  {
    "id": 135,
    "name": "(株)ﾔﾊﾞﾀ",
    "address": "茨城県行方市矢幡1745-2",
    "lat": 35.9970829,
    "lng": 140.5346158
  },
  {
    "id": 136,
    "name": "株式会社羽生工務店",
    "address": "茨城県行方市内宿906",
    "lat": 36.0967005,
    "lng": 140.502826
  },
  {
    "id": 137,
    "name": "斉藤建設(株)",
    "address": "茨城県行方市大字内宿895-1",
    "lat": 36.0968176,
    "lng": 140.5009262
  },
  {
    "id": 138,
    "name": "株式会社光建",
    "address": "茨城県行方市四鹿1",
    "lat": 36.0431103,
    "lng": 140.5090731
  },
  {
    "id": 139,
    "name": "(株)兼平建設",
    "address": "茨城県行方市玉造甲3652",
    "lat": 36.1043346,
    "lng": 140.4336774
  },
  {
    "id": 140,
    "name": "(株)根崎工務店",
    "address": "茨城県行方市玉造850",
    "lat": 36.1055357,
    "lng": 140.4155073
  },
  {
    "id": 141,
    "name": "株式会社大樹",
    "address": "茨城県行方市井貝811507",
    "lat": 35.9906251,
    "lng": 140.4889866
  },
  {
    "id": 142,
    "name": "(有)新栄建設",
    "address": "茨城県行方市井貝811-255",
    "lat": 36.0516473,
    "lng": 140.4834021
  },
  {
    "id": 143,
    "name": "(有)板橋建設工業",
    "address": "茨城県行方市井貝671-1",
    "lat": 36.0453714,
    "lng": 140.4865589
  },
  {
    "id": 144,
    "name": "新利根川土地改良区",
    "address": "茨城県稲敷市幸田3542",
    "lat": 35.9359221,
    "lng": 140.3853375
  },
  {
    "id": 145,
    "name": "株式会社東土木",
    "address": "茨城県稲敷市幸田1414",
    "lat": 35.9389095,
    "lng": 140.3911748
  },
  {
    "id": 146,
    "name": "(株)佐藤組",
    "address": "茨城県稲敷市曲渕201",
    "lat": 35.9108737,
    "lng": 140.4140036
  },
  {
    "id": 147,
    "name": "細谷建設工業(株)",
    "address": "茨城県稲敷郡河内町金江津5107",
    "lat": 35.8826095,
    "lng": 140.3382109
  },
  {
    "id": 148,
    "name": "東城建設(株)",
    "address": "茨城県潮来市島須2307",
    "lat": 35.9684703,
    "lng": 140.5484724
  },
  {
    "id": 149,
    "name": "東洋地質株式会社",
    "address": "茨城県潮来市辻66-3",
    "lat": 35.9444436,
    "lng": 140.5587141
  },
  {
    "id": 150,
    "name": "株式会社ﾗｯｸﾗｲｽﾞ",
    "address": "茨城県潮来市辻1478-2",
    "lat": 35.9552789,
    "lng": 140.5536773
  },
  {
    "id": 151,
    "name": "(有)櫻屋建設工業",
    "address": "茨城県潮来市大塚野1-19-2",
    "lat": 35.9454995,
    "lng": 140.5377212
  },
  {
    "id": 152,
    "name": "(有)櫻井建設",
    "address": "茨城県潮来市大塚野1-18-4",
    "lat": 35.9457495,
    "lng": 140.538832
  },
  {
    "id": 153,
    "name": "(株)松崎土木",
    "address": "茨城県潮来市須賀南117",
    "lat": 35.9546372,
    "lng": 140.5606258
  },
  {
    "id": 154,
    "name": "ｸﾞﾝｼﾞ建設(株)",
    "address": "茨城県潮来市新宮1937-1",
    "lat": 35.9579434,
    "lng": 140.5864491
  },
  {
    "id": 155,
    "name": "水郷建設(株)",
    "address": "茨城県潮来市上戸2013",
    "lat": 35.9450729,
    "lng": 140.5363549
  },
  {
    "id": 156,
    "name": "(有)大槻土建",
    "address": "茨城県鹿嶋市和1572",
    "lat": 36.0332077,
    "lng": 140.6032898
  },
  {
    "id": 157,
    "name": "株式会社ﾗｲｼﾞﾝｸﾞ",
    "address": "茨城県鹿嶋市平井1005-25",
    "lat": 35.9633307,
    "lng": 140.6635858
  },
  {
    "id": 158,
    "name": "株式会社根本工務店",
    "address": "茨城県鹿嶋市大船津2054-1",
    "lat": 35.9641978,
    "lng": 140.6155332
  },
  {
    "id": 159,
    "name": "株式会社ｴｰﾋﾞｽ技術",
    "address": "茨城県鹿嶋市小山1032-4",
    "lat": 36.008084,
    "lng": 140.6281904
  },
  {
    "id": 160,
    "name": "(株)鹿島環境ｻｰﾋﾞｽ",
    "address": "茨城県神栖市柳川中央1-10-2",
    "lat": 35.8603305,
    "lng": 140.7383464
  },
  {
    "id": 161,
    "name": "鹿島花壇土木(株)",
    "address": "茨城県神栖市柳川1707",
    "lat": 35.8584962,
    "lng": 140.7383752
  },
  {
    "id": 162,
    "name": "大根造園土木(株)",
    "address": "茨城県神栖市矢田部3272",
    "lat": 35.7900145,
    "lng": 140.751555
  },
  {
    "id": 163,
    "name": "株式会社鹿島企業",
    "address": "茨城県神栖市矢田部11528-1",
    "lat": 35.8074975,
    "lng": 140.774509
  },
  {
    "id": 164,
    "name": "日栄建設株式会社",
    "address": "茨城県神栖市平泉281-36",
    "lat": 35.9178504,
    "lng": 140.635475
  },
  {
    "id": 165,
    "name": "司建設株式会社",
    "address": "茨城県神栖市波崎6507-1",
    "lat": 35.7548342,
    "lng": 140.8107867
  },
  {
    "id": 166,
    "name": "鏑木建設株式会社",
    "address": "茨城県神栖市波崎6487",
    "lat": 35.7538245,
    "lng": 140.8106981
  },
  {
    "id": 167,
    "name": "宝山工業(株)",
    "address": "茨城県神栖市日川4497",
    "lat": 35.8606813,
    "lng": 140.7004373
  },
  {
    "id": 168,
    "name": "岩瀬設備工業(株)",
    "address": "茨城県神栖市日川213-4",
    "lat": 35.8663066,
    "lng": 140.6799582
  },
  {
    "id": 169,
    "name": "浜口建設(株)",
    "address": "茨城県神栖市筒井2-99",
    "lat": 35.9110265,
    "lng": 140.6183689
  },
  {
    "id": 170,
    "name": "大塚造園建設(株)",
    "address": "茨城県神栖市筒井1262-2",
    "lat": 35.9060532,
    "lng": 140.6261718
  },
  {
    "id": 171,
    "name": "東洋工事(株)",
    "address": "茨城県神栖市田畑49-1",
    "lat": 35.8732782,
    "lng": 140.6555737
  },
  {
    "id": 172,
    "name": "(有)柏崎建設",
    "address": "茨城県神栖市大野原中央1-10-23",
    "lat": 35.8848048,
    "lng": 140.6449752
  },
  {
    "id": 173,
    "name": "(株)村田屋建工",
    "address": "茨城県神栖市太田4270",
    "lat": 35.8436111,
    "lng": 140.7155856
  },
  {
    "id": 174,
    "name": "幸武建設株式会社",
    "address": "茨城県神栖市神栖4-5-31",
    "lat": 35.9064994,
    "lng": 140.65297
  },
  {
    "id": 175,
    "name": "共和建設(株)",
    "address": "茨城県神栖市溝口4873-439",
    "lat": 35.8768597,
    "lng": 140.6651075
  },
  {
    "id": 176,
    "name": "常総開発工業株式会社",
    "address": "茨城県神栖市賀2108-8",
    "lat": 35.9025997,
    "lng": 140.6212129
  },
  {
    "id": 177,
    "name": "飯田建設(有)",
    "address": "茨城県神栖市横瀬1002-6",
    "lat": 35.862055,
    "lng": 140.7041712
  },
  {
    "id": 178,
    "name": "千代田建設株式会社",
    "address": "茨城県石岡市府中5-1",
    "lat": 36.1959194,
    "lng": 140.2737477
  },
  {
    "id": 179,
    "name": "平成建設株式会社",
    "address": "茨城県石岡市府中2-3-16",
    "lat": 36.1933084,
    "lng": 140.2719648
  },
  {
    "id": 180,
    "name": "(株)小貫工業",
    "address": "茨城県石岡市南台2-31-2",
    "lat": 36.1818075,
    "lng": 140.2953306
  },
  {
    "id": 181,
    "name": "(株)菱伸工営",
    "address": "茨城県石岡市谷向町15-24",
    "lat": 36.2122542,
    "lng": 140.2639238
  },
  {
    "id": 182,
    "name": "株式会社長谷川工務店",
    "address": "茨城県石岡市染谷1189",
    "lat": 36.1993692,
    "lng": 140.2486063
  },
  {
    "id": 183,
    "name": "(株)木村工務店",
    "address": "茨城県石岡市若松1-4-8",
    "lat": 36.1972703,
    "lng": 140.2683107
  },
  {
    "id": 184,
    "name": "(株)大場工務店",
    "address": "茨城県石岡市佐久307",
    "lat": 36.26301249999999,
    "lng": 140.2006057
  },
  {
    "id": 185,
    "name": "株式会社岡崎土建",
    "address": "茨城県石岡市下林389",
    "lat": 36.2331793,
    "lng": 140.2295937
  },
  {
    "id": 186,
    "name": "福井建設株式会社",
    "address": "茨城県石岡市茨城3-17-4",
    "lat": 36.1751705,
    "lng": 140.2863533
  },
  {
    "id": 188,
    "name": "新井土木(株)",
    "address": "茨城県常総市大房27",
    "lat": 36.1046875,
    "lng": 139.9700749
  },
  {
    "id": 192,
    "name": "(有)石田建材",
    "address": "茨城県鉾田市冷水1078",
    "lat": 36.2072835,
    "lng": 140.5635693
  },
  {
    "id": 193,
    "name": "(株)内田建設",
    "address": "茨城県鉾田市鉾田1983",
    "lat": 36.14881390000001,
    "lng": 140.5104662
  },
  {
    "id": 194,
    "name": "株式会社田口建設工業",
    "address": "茨城県鉾田市台濁沢398-2",
    "lat": 36.1303717,
    "lng": 140.5814963
  },
  {
    "id": 195,
    "name": "株式会社村田工業",
    "address": "茨城県鉾田市上釜565-8",
    "lat": 36.2515642,
    "lng": 140.541905
  },
  {
    "id": 196,
    "name": "(株)沼田工務店",
    "address": "茨城県鉾田市札146-1",
    "lat": 36.085506,
    "lng": 140.5442318
  },
  {
    "id": 197,
    "name": "株式会社伊東建設",
    "address": "茨城県鉾田市串挽465ｰ1",
    "lat": 36.1450594,
    "lng": 140.5066662
  },
  {
    "id": 198,
    "name": "(株)丸江建設",
    "address": "茨城県鉾田市串挽2080-6",
    "lat": 36.134913,
    "lng": 140.4953222
  },
  {
    "id": 199,
    "name": "大洋設備工業(株)",
    "address": "茨城県鉾田市梶山473-2",
    "lat": 36.1078836,
    "lng": 140.5367492
  },
  {
    "id": 200,
    "name": "茨建工業(株)",
    "address": "茨城県土浦市本郷2065-4",
    "lat": 36.1429414,
    "lng": 140.1759816
  },
  {
    "id": 201,
    "name": "池田林業(株)",
    "address": "茨城県土浦市菅谷町1467",
    "lat": 36.1122995,
    "lng": 140.2640211
  },
  {
    "id": 202,
    "name": "(株)つくば開発",
    "address": "茨城県つくば市上ﾉ室931-5",
    "lat": 36.0775339,
    "lng": 140.143315
  },
  {
    "id": 203,
    "name": "(株)成財基業",
    "address": "茨城県つくば市高崎111",
    "lat": 35.9976122,
    "lng": 140.124911
  },
  {
    "id": 204,
    "name": "(株)ﾑﾗﾉ",
    "address": "茨城県つくば市栗原873",
    "lat": 36.1309381,
    "lng": 140.1212723
  }
]